[
  {
    "code":"Manado #1",
    "name":"Alif ",
    "phone":62800000001,
    "address":"Paniki Bawah, Mapanget, Manado, Sulawesi Utara, Indonesia",
    "kelurahan":"Paniki Bawah",
    "subdistrict_name":"Mapanget",
    "city":"Manado",
    "province":"Sulawesi Utara",
    "latitude":1.5285683,
    "longitude":124.9230528
  },
  {
    "code":"Depok #1",
    "name":"Budi",
    "phone":62800000002,
    "address":"Bakti Jaya, Sukmajaya, Depok, Jawa Barat, Indonesia",
    "kelurahan":"Bakti Jaya",
    "subdistrict_name":"Sukmajaya",
    "city":"Depok",
    "province":"Jawa Barat",
    "latitude":null,
    "longitude":null
  },
  {
    "code":"Madiun #1",
    "name":"Nura",
    "phone":62800000003,
    "address":"Jiwan, Jiwan, Madiun, Jawa Timur, Indonesia",
    "kelurahan":"Jiwan",
    "subdistrict_name":"Jiwan",
    "city":"Madiun",
    "province":"Jawa Timur",
    "latitude":-7.6380726,
    "longitude":111.500463
  },
  {
    "code":"Surabaya #1",
    "name":"Anam",
    "phone":62800000004,
    "address":"Pakis, Sawahan, Surabaya, Jawa Timur, Indonesia",
    "kelurahan":"Pakis",
    "subdistrict_name":"Sawahan",
    "city":"Surabaya",
    "province":"Jawa Timur",
    "latitude":-7.2864046,
    "longitude":112.7226443
  },
  {
    "code":"Bandung #1",
    "name":"Yusuf",
    "phone":62800000005,
    "address":"Pasteur, Sukajadi, Bandung, Jawa Barat, Indonesia",
    "kelurahan":"Pasteur",
    "subdistrict_name":"Sukajadi",
    "city":"Bandung",
    "province":"Jawa Barat",
    "latitude":null,
    "longitude":null
  },
  {
    "code":"Lampung #1",
    "name":"Dian",
    "phone":62800000006,
    "address":"Negara Ratu, Natar, Natar, Lampung, Indonesia",
    "kelurahan":"Negara Ratu",
    "subdistrict_name":"Natar",
    "city":"Natar",
    "province":"Lampung",
    "latitude":-5.3077367,
    "longitude":105.1713053
  },
  {
    "code":"Tasikmalaya #1",
    "name":"Lita",
    "phone":62800000007,
    "address":"Sukamaju kaler, Indihiang, Tasikmalaya, Jawa Barat, Indonesia",
    "kelurahan":"Sukamaju kaler",
    "subdistrict_name":"Indihiang",
    "city":"Tasikmalaya",
    "province":"Jawa Barat",
    "latitude":-7.2796306,
    "longitude":108.1942038
  },
  {
    "code":"Batang #1",
    "name":"Nora",
    "phone":62800000008,
    "address":"Ponowareng, Tulis, Batang, Jawa Tengah, Indonesia",
    "kelurahan":"Ponowareng",
    "subdistrict_name":"Tulis",
    "city":"Batang",
    "province":"Jawa Tengah",
    "latitude":null,
    "longitude":null
  },
  {
    "code":"Bandung #2",
    "name":"Wanto",
    "phone":62800000009,
    "address":"Pasirjati, Ujungberung, Bandung, Jawa Barat, Indonesia",
    "kelurahan":"Pasirjati",
    "subdistrict_name":"Ujungberung",
    "city":"Bandung",
    "province":"Jawa Barat",
    "latitude":-6.9097527,
    "longitude":107.7082856
  },
  {
    "code":"Jakarta Pusat #1",
    "name":"Muar",
    "phone":62800000010,
    "address":"Cempaka Putih Timur, Cempaka Putih, Jakarta Pusat, DKI Jakarta, Indonesia",
    "kelurahan":"Cempaka Putih Timur",
    "subdistrict_name":"Cempaka Putih",
    "city":"Jakarta Pusat",
    "province":"DKI Jakarta",
    "latitude":-6.177633,
    "longitude":106.8704491
  },
  {
    "code":"Bogor #1",
    "name":"Alian",
    "phone":62800000011,
    "address":"Pondok Rajeg, Cibinong, Bogor, Jawa Barat, Indonesia",
    "kelurahan":"Pondok Rajeg",
    "subdistrict_name":"Cibinong",
    "city":"Bogor",
    "province":"Jawa Barat",
    "latitude":-6.4607829,
    "longitude":106.824296
  },
  {
    "code":"Tangerang #1",
    "name":"Tyo",
    "phone":62800000012,
    "address":"Kadu, Curug, Tangerang, Banten, Indonesia",
    "kelurahan":"Kadu",
    "subdistrict_name":"Curug",
    "city":"Tangerang",
    "province":"Banten",
    "latitude":-6.2911511,
    "longitude":106.5776796
  },
  {
    "code":"Jakarta Timur #1",
    "name":"Wira",
    "phone":62800000013,
    "address":"Lubang Buaya, Cipayung, Jakarta Timur, DKI Jakarta, Indonesia",
    "kelurahan":"Lubang Buaya",
    "subdistrict_name":"Cipayung",
    "city":"Jakarta Timur",
    "province":"DKI Jakarta",
    "latitude":-6.2940382,
    "longitude":106.8999121
  },
  {
    "code":"Bali #1",
    "name":"Roni",
    "phone":62800000014,
    "address":"Sesetan, Denpasar Selatan, Denpasar, Bali, Indonesia",
    "kelurahan":"Sesetan",
    "subdistrict_name":"Denpasar Selatan",
    "city":"Denpasar",
    "province":"Bali",
    "latitude":-8.7119452,
    "longitude":115.2198558
  },
  {
    "code":"Jakarta Pusat #2",
    "name":"Roni",
    "phone":62800000015,
    "address":"Kebon Kacang, Tanah Abang, Jakarta Pusat, DKI Jakarta, Indonesia",
    "kelurahan":"Kebon Kacang",
    "subdistrict_name":"Tanah Abang",
    "city":"Jakarta Pusat",
    "province":"DKI Jakarta",
    "latitude":-6.1906091,
    "longitude":106.8157652
  },
  {
    "code":"Mimika #1",
    "name":"Ilham ",
    "phone":62800000018,
    "address":"Koperapoka, Mimika baru, Mimika, Papua, Indonesia",
    "kelurahan":"Koperapoka",
    "subdistrict_name":"Mimika baru",
    "city":"Mimika",
    "province":"Papua",
    "latitude":-4.4181133,
    "longitude":136.7279231
  },
  {
    "code":"Cilacap #1",
    "name":"Asep",
    "phone":62800000022,
    "address":"Jambusari, Jeruklegi, Cilacap, Jawa Tengah, Indonesia",
    "kelurahan":"Jambusari",
    "subdistrict_name":"Jeruklegi",
    "city":"Cilacap",
    "province":"Jawa Tengah",
    "latitude":null,
    "longitude":null
  },
  {
    "code":"Sidoarjo #1",
    "name":"Rana",
    "phone":62800000054,
    "address":"Mojoruntut, Krembung, Sidoarjo, Jawa Timur, Indonesia",
    "kelurahan":"Mojoruntut",
    "subdistrict_name":"Krembung",
    "city":"Sidoarjo",
    "province":"Jawa Timur",
    "latitude":-7.5179518,
    "longitude":112.6265697
  },
  {
    "code":"Magelang #1",
    "name":"Agil",
    "phone":62800000098,
    "address":"Bulurejo, Mertoyudan, Magelang, Jawa Tengah, Indonesia",
    "kelurahan":"Bulurejo",
    "subdistrict_name":"Mertoyudan",
    "city":"Magelang",
    "province":"Jawa Tengah",
    "latitude":null,
    "longitude":null
  },
  {
    "code":"Nganjuk #1",
    "name":"Amal",
    "phone":62800008790,
    "address":"Jarakan, Kramat, Nganjuk, Jawa Timur, Indonesia",
    "kelurahan":"Jarakan",
    "subdistrict_name":"Kramat",
    "city":"Nganjuk",
    "province":"Jawa Timur",
    "latitude":null,
    "longitude":null
  },
  {
    "code":"Jakarta Utara #1",
    "name":"Celcius",
    "phone":62800067906,
    "address":"Pejagalan, Penjaringan, Jakarta Utara, DKI Jakarta, Indonesia",
    "kelurahan":"Pejagalan",
    "subdistrict_name":"Penjaringan",
    "city":"Jakarta Utara",
    "province":"DKI Jakarta",
    "latitude":-6.1335221,
    "longitude":106.7849633
  },
  {
    "code":"Pontianak #1",
    "name":"Muar",
    "phone":62800000028,
    "address":"Parit Baru, Sungai Raya, Kubu Raya, Kalimantan Barat, Indonesia",
    "kelurahan":"Parit Baru",
    "subdistrict_name":"Sungai Raya",
    "city":"Kubu Raya",
    "province":"Kalimantan Barat",
    "latitude":null,
    "longitude":null
  }
]